{"hasZ":false,"features":[{"attributes":{"fid":1,"departamen":"ANTIOQUIA","tipo":"Municipio","latitud":6.25759026,"longitud":-75.61103107,"municipio":"MEDELLÍN","cod_dep":"05","cod_mun":"05001"},"geometry":{"x":-8413643.983620528,"y":697660.9731011838}},{"attributes":{"fid":2,"departamen":"ATLÁNTICO","tipo":"Municipio","latitud":10.98152051,"longitud":-74.82771544,"municipio":"BARRANQUILLA","cod_dep":"08","cod_mun":"08001"},"geometry":{"x":-8326525.151104027,"y":1230011.2375010438}},{"attributes":{"fid":3,"departamen":"BOGOTÁ, D.C.","tipo":"Municipio","latitud":4.3161077,"longitud":-74.1810727,"municipio":"BOGOTÁ, D.C.","cod_dep":"11","cod_mun":"11001"},"geometry":{"x":-8248027.400009463,"y":517256.1728296615}},{"attributes":{"fid":4,"departamen":"BOLÍVAR","tipo":"Municipio","latitud":10.46343362,"longitud":-75.45889915,"municipio":"CARTAGENA DE INDIAS","cod_dep":"13","cod_mun":"13001"},"geometry":{"x":-8403383.722089458,"y":1163111.9360681288}},{"attributes":{"fid":5,"departamen":"BOYACÁ","tipo":"Municipio","latitud":5.51847262,"longitud":-73.37801856,"municipio":"TUNJA","cod_dep":"15","cod_mun":"15001"},"geometry":{"x":-8166774.646678964,"y":616942.1063025445}},{"attributes":{"fid":6,"departamen":"CALDAS","tipo":"Municipio","latitud":5.08343301,"longitud":-75.50727881,"municipio":"MANIZALES","cod_dep":"17","cod_mun":"17001"},"geometry":{"x":-8404796.115418127,"y":564315.5301911794}},{"attributes":{"fid":7,"departamen":"CAQUETÁ","tipo":"Municipio","latitud":1.7491387,"longitud":-75.55823906,"municipio":"FLORENCIA","cod_dep":"18","cod_mun":"18001"},"geometry":{"x":-8416455.28167782,"y":180062.770065248}},{"attributes":{"fid":8,"departamen":"CAUCA","tipo":"Municipio","latitud":2.47170436,"longitud":-76.59194419,"municipio":"POPAYÁN","cod_dep":"19","cod_mun":"19001"},"geometry":{"x":-8528401.221438237,"y":271761.12923226506}},{"attributes":{"fid":9,"departamen":"CESAR","tipo":"Municipio","latitud":10.21890277,"longitud":-73.45784764,"municipio":"VALLEDUPAR","cod_dep":"20","cod_mun":"20001"},"geometry":{"x":-8154404.528331388,"y":1172722.4780736044}},{"attributes":{"fid":10,"departamen":"CÓRDOBA","tipo":"Municipio","latitud":8.58469802,"longitud":-75.95055079,"municipio":"MONTERÍA","cod_dep":"23","cod_mun":"23001"},"geometry":{"x":-8447026.559434915,"y":978498.3410511278}},{"attributes":{"fid":11,"departamen":"CHOCÓ","tipo":"Municipio","latitud":5.7543229,"longitud":-76.65015147,"municipio":"QUIBDÓ","cod_dep":"27","cod_mun":"27001"},"geometry":{"x":-8533688.864383573,"y":634726.4799646847}},{"attributes":{"fid":12,"departamen":"HUILA","tipo":"Municipio","latitud":2.99336005,"longitud":-75.27236232,"municipio":"NEIVA","cod_dep":"41","cod_mun":"41001"},"geometry":{"x":-8380949.7909288015,"y":326527.94242029265}},{"attributes":{"fid":13,"departamen":"LA GUAJIRA","tipo":"Municipio","latitud":11.24297214,"longitud":-72.95876315,"municipio":"RIOHACHA","cod_dep":"44","cod_mun":"44001"},"geometry":{"x":-8116434.755197907,"y":1293285.2864805348}},{"attributes":{"fid":14,"departamen":"MAGDALENA","tipo":"Municipio","latitud":11.12189436,"longitud":-73.88527855,"municipio":"SANTA MARTA","cod_dep":"47","cod_mun":"47001"},"geometry":{"x":-8259411.987987652,"y":1258676.9787868746}},{"attributes":{"fid":15,"departamen":"META","tipo":"Municipio","latitud":4.09166877,"longitud":-73.49291594,"municipio":"VILLAVICENCIO","cod_dep":"50","cod_mun":"50001"},"geometry":{"x":-8195934.573474286,"y":461725.8554057069}},{"attributes":{"fid":16,"departamen":"NARIÑO","tipo":"Municipio","latitud":1.0836055,"longitud":-77.20610074,"municipio":"PASTO","cod_dep":"52","cod_mun":"52001"},"geometry":{"x":-8602649.160705857,"y":134542.6092673503}},{"attributes":{"fid":17,"departamen":"NORTE DE SANTANDER","tipo":"Municipio","latitud":8.11204181,"longitud":-72.48862641,"municipio":"SAN JOSÉ DE CÚCUTA","cod_dep":"54","cod_mun":"54001"},"geometry":{"x":-8070986.262379518,"y":881986.6766236238}},{"attributes":{"fid":18,"departamen":"QUINDÍO","tipo":"Municipio","latitud":4.49950113,"longitud":-75.72489985,"municipio":"ARMENIA","cod_dep":"63","cod_mun":"63001"},"geometry":{"x":-8424094.80377583,"y":505702.24671999365}},{"attributes":{"fid":19,"departamen":"RISARALDA","tipo":"Municipio","latitud":4.80366277,"longitud":-75.79579093,"municipio":"PEREIRA","cod_dep":"66","cod_mun":"66001"},"geometry":{"x":-8427258.247949312,"y":536804.2647943608}},{"attributes":{"fid":20,"departamen":"SANTANDER","tipo":"Municipio","latitud":7.15583354,"longitud":-73.11156997,"municipio":"BUCARAMANGA","cod_dep":"68","cod_mun":"68001"},"geometry":{"x":-8139140.060853539,"y":794258.0942794606}},{"attributes":{"fid":21,"departamen":"SUCRE","tipo":"Municipio","latitud":9.31667393,"longitud":-75.43174967,"municipio":"SINCELEJO","cod_dep":"70","cod_mun":"70001"},"geometry":{"x":-8393050.756568618,"y":1040117.7821104303}},{"attributes":{"fid":22,"departamen":"TOLIMA","tipo":"Municipio","latitud":4.45192143,"longitud":-75.252591,"municipio":"IBAGUÉ","cod_dep":"73","cod_mun":"73001"},"geometry":{"x":-8372073.871123526,"y":494530.8297942877}},{"attributes":{"fid":23,"departamen":"VALLE DEL CAUCA","tipo":"Municipio","latitud":3.39904372,"longitud":-76.57649259,"municipio":"SANTIAGO DE CALI","cod_dep":"76","cod_mun":"76001"},"geometry":{"x":-8517635.4917519,"y":383179.293375317}},{"attributes":{"fid":24,"departamen":"ARAUCA","tipo":"Municipio","latitud":6.79628083,"longitud":-70.50921153,"municipio":"ARAUCA","cod_dep":"81","cod_mun":"81001"},"geometry":{"x":-7876612.6554104965,"y":790851.3652578816}},{"attributes":{"fid":25,"departamen":"CASANARE","tipo":"Municipio","latitud":5.24274476,"longitud":-72.25802857,"municipio":"YOPAL","cod_dep":"85","cod_mun":"85001"},"geometry":{"x":-8058984.056498054,"y":595049.7497986108}},{"attributes":{"fid":26,"departamen":"PUTUMAYO","tipo":"Municipio","latitud":1.26070915,"longitud":-76.66584349,"municipio":"MOCOA","cod_dep":"86","cod_mun":"86001"},"geometry":{"x":-8532349.835684232,"y":127966.92695135996}},{"attributes":{"fid":27,"departamen":"ARCHIPIÉLAGO DE SAN ANDRÉS, PROVIDENCIA Y SANTA CATALINA","tipo":"Isla","latitud":12.54311512,"longitud":-81.71762382,"municipio":"SAN ANDRÉS","cod_dep":"88","cod_mun":"88001"},"geometry":{"x":-9096764.272899514,"y":1407581.6841292717}},{"attributes":{"fid":28,"departamen":"AMAZONAS","tipo":"Municipio","latitud":-3.53005878,"longitud":-70.04513691,"municipio":"LETICIA","cod_dep":"91","cod_mun":"91001"},"geometry":{"x":-7785634.9061614685,"y":-469474.5974028148}},{"attributes":{"fid":29,"departamen":"GUAINÍA","tipo":"Municipio","latitud":3.51636308,"longitud":-68.00834728,"municipio":"INÍRIDA","cod_dep":"94","cod_mun":"94001"},"geometry":{"x":-7561039.430687714,"y":431606.7828278728}},{"attributes":{"fid":30,"departamen":"GUAVIARE","tipo":"Municipio","latitud":2.48428609,"longitud":-71.91916993,"municipio":"SAN JOSÉ DEL GUAVIARE","cod_dep":"95","cod_mun":"95001"},"geometry":{"x":-8086206.081274731,"y":285517.25222145766}},{"attributes":{"fid":31,"departamen":"VAUPÉS","tipo":"Municipio","latitud":1.06148231,"longitud":-70.46688401,"municipio":"MITÚ","cod_dep":"97","cod_mun":"97001"},"geometry":{"x":-7818273.415617624,"y":139789.09983011335}},{"attributes":{"fid":32,"departamen":"VICHADA","tipo":"Municipio","latitud":5.83652967,"longitud":-68.14122234,"municipio":"PUERTO CARREÑO","cod_dep":"99","cod_mun":"99001"},"geometry":{"x":-7585446.172446057,"y":650846.1046494097}}],"exceededTransferLimit":false,"hasM":false,"objectIdFieldName":"fid","fields":[{"defaultValue":null,"length":4,"type":"esriFieldTypeOID","modelName":"fid","name":"fid","alias":"fid"},{"modelName":"cod_dep","defaultValue":null,"name":"cod_dep","length":254,"alias":"Cod_Dep","type":"esriFieldTypeString"},{"modelName":"departamen","defaultValue":null,"name":"departamen","length":254,"alias":"Departamen","type":"esriFieldTypeString"},{"modelName":"cod_mun","defaultValue":null,"name":"cod_mun","length":254,"alias":"Cod_Mun","type":"esriFieldTypeString"},{"modelName":"municipio","defaultValue":null,"name":"municipio","length":254,"alias":"Municipio","type":"esriFieldTypeString"},{"modelName":"tipo","defaultValue":null,"name":"tipo","length":254,"alias":"Tipo","type":"esriFieldTypeString"},{"modelName":"latitud","defaultValue":null,"name":"latitud","alias":"Latitud","type":"esriFieldTypeDouble"},{"modelName":"longitud","defaultValue":null,"name":"longitud","alias":"Longitud","type":"esriFieldTypeDouble"}],"spatialReference":{"latestWkid":3857,"wkid":102100},"geometryType":"esriGeometryPoint"}